{
  "metadata": {
    "timestamp": "2025-11-29T16:28:06.017440",
    "category": "Gym",
    "google_type": "gym",
    "bounds": {
      "lat_north": 24.8135,
      "lat_south": 24.809,
      "lon_east": 67.036,
      "lon_west": 67.031
    },
    "center": {
      "lat": 24.81125,
      "lon": 67.0335
    },
    "radius_meters": 500,
    "total_results": 3,
    "statistics": {
      "places_with_ratings": 3,
      "places_without_ratings": 0,
      "average_rating": 4.17,
      "total_reviews": 42
    },
    "source": "google_places_api",
    "adapter_version": "1.1.0",
    "cache_expiry_hours": 24
  },
  "places": [
    {
      "business_status": "OPERATIONAL",
      "geometry": {
        "location": {
          "lat": 24.8106875,
          "lng": 67.0353125
        },
        "viewport": {
          "northeast": {
            "lat": 24.8120531802915,
            "lng": 67.03665388029151
          },
          "southwest": {
            "lat": 24.8093552197085,
            "lng": 67.0339559197085
          }
        }
      },
      "icon": "https://maps.gstatic.com/mapfiles/place_api/icons/v1/png_71/generic_business-71.png",
      "icon_background_color": "#7B9EB0",
      "icon_mask_base_uri": "https://maps.gstatic.com/mapfiles/place_api/icons/v2/generic_pinlet",
      "international_phone_number": "+92 345 3232059",
      "name": "Mama Noushad Snooker Club",
      "opening_hours": {
        "open_now": true
      },
      "photos": [
        {
          "height": 1280,
          "html_attributions": [
            "<a href=\"https://maps.google.com/maps/contrib/116340640206241816264\">dawood shah</a>"
          ],
          "photo_reference": "AWn5SU4YnMMo4o1edrwAwDg_eOxKdfVjjljrJW1EPFbBJZLaTe34l3Oko4g9rnEdURj1PUbbObhubsPYEYX8mIOjuoLZS74yneI_MYHs1qc_eDGnG7BvqZagF44cyLAhbgimFOeNwHbacG5hIRij1EASPocBlybWLYFr52QJEaIw7YV6ImLeBIRgfmenVMU_ywKmsD8z-5Dl76RBw4Ytq6rAZadgBNLd3Ce1vI7jDYVnFGtsQM0vd5GX36PLUsiexho9rsyjzn_DALzOIKFRnyd0gQXSzpxzANFwDnptPitLLGuwV3ckplfYr9cKXB-zWDyMuiFyMJgM4mY4Yx27-gSo9iYxBETxJ5HxCu961WkZkFbnFHkSUPj4RDGLDDhoTFIvTVhe6cCdXnai5a5khbVkr-biKtW5jJTKeHJTN1lX2NuZxwBZDL2xfZy7bvp0f3S3vlPBYMgnrokS3Zk3IjAs3QEvnfkKwTZfKjfReivR3o-YjLkwGPHw6bATXX9t-3YFiwgPLNsyEMjAeV69bU9xhERrZ2CpTbedXDVzXugJ1DwzaxshwdlG9R88tIr-MUScOQZpNTm4EWmskH8eKrHkXvwn_JbFAYEHD7Qd7Al4zrbpU5BswKzwlvxahtI4B0PmJDzB_g",
          "width": 960
        }
      ],
      "place_id": "ChIJqfjrHSo9sz4R83tg3azOs54",
      "plus_code": {
        "compound_code": "R26P+74 Shah Rasool Colony, Karachi, Pakistan",
        "global_code": "7JP9R26P+74"
      },
      "rating": 5,
      "reference": "ChIJqfjrHSo9sz4R83tg3azOs54",
      "scope": "GOOGLE",
      "types": [
        "gym",
        "point_of_interest",
        "health",
        "establishment"
      ],
      "user_ratings_total": 5,
      "vicinity": "Karachi"
    },
    {
      "business_status": "OPERATIONAL",
      "geometry": {
        "location": {
          "lat": 24.8140539,
          "lng": 67.0329385
        },
        "viewport": {
          "northeast": {
            "lat": 24.8154479302915,
            "lng": 67.0342724802915
          },
          "southwest": {
            "lat": 24.8127499697085,
            "lng": 67.0315745197085
          }
        }
      },
      "icon": "https://maps.gstatic.com/mapfiles/place_api/icons/v1/png_71/generic_business-71.png",
      "icon_background_color": "#7B9EB0",
      "icon_mask_base_uri": "https://maps.gstatic.com/mapfiles/place_api/icons/v2/generic_pinlet",
      "name": "Al Naadil Burhani Community Centre",
      "place_id": "ChIJY6ru_aI9sz4R8iHIDw-IO4Q",
      "rating": 3.7,
      "reference": "ChIJY6ru_aI9sz4R8iHIDw-IO4Q",
      "scope": "GOOGLE",
      "types": [
        "gym",
        "point_of_interest",
        "health",
        "establishment"
      ],
      "user_ratings_total": 3,
      "vicinity": "R27M+J5G, Old Clifton, Karachi"
    },
    {
      "business_status": "OPERATIONAL",
      "geometry": {
        "location": {
          "lat": 24.8091733,
          "lng": 67.0359546
        },
        "viewport": {
          "northeast": {
            "lat": 24.8105362302915,
            "lng": 67.03731663029151
          },
          "southwest": {
            "lat": 24.8078382697085,
            "lng": 67.03461866970851
          }
        }
      },
      "icon": "https://maps.gstatic.com/mapfiles/place_api/icons/v1/png_71/generic_business-71.png",
      "icon_background_color": "#7B9EB0",
      "icon_mask_base_uri": "https://maps.gstatic.com/mapfiles/place_api/icons/v2/generic_pinlet",
      "name": "Wieder Gym",
      "photos": [
        {
          "height": 3456,
          "html_attributions": [
            "<a href=\"https://maps.google.com/maps/contrib/115579936257721991558\">Faisal Faves</a>"
          ],
          "photo_reference": "AWn5SU6PTL_Xfc_ZtKJOZKvrGcx6WiCqd752DJYQibwIa94KBqh1nAxyc_MdR9y1gZxmUBOuZp6sPiSwvH03Yyr-aUtGpEtCwoAyV2dR3C06yP4cP13UE79aiGd3Eev8om2SxSse2V2ffV7KXnwIxOpTQJihVNAvqnMR-4h13CI8g_amGvpbiNLV_scb5YzSsKyg2h9iSIOMrknrErQG3UOfLMRZIEZrX8v_WzViX0iL3FEoklvdLOk1gY3zRSfS_MI5BpoPz34U7c7wJaOXMj8tcAAMJRq66KdiiBt-CVdypv_HJdsj3u0tHbB8bA043--2mclS4FjqPrg8WugeYLdh3Hn3faz6vcxFZEdsiCwbuYAVfoRG-DgiIudQzebrNpV1QELoLMkRUdKsEz31xixAKNniVHE_WF1QHQH6BsgBaGElXOsKdHqgJA5WH9ehW3dEkZVLKLihC6vvx7tDDfnQFc-AMoE2NAGMN9QihPdh9v_ELxIA-h1o1z8yvrY6btAQzyaQ3potYbe3LFuzXxSK2SwjcAK4FIWXJUqxaxVOhGmA3LFAhU8P_P4GdrQHVIj2lv1xtYhYoFrXRYb16UycxCWRhFLZKq42J80kOgESBs6b2ZkDxm9tyVfKVEu4OAiM",
          "width": 4608
        }
      ],
      "place_id": "ChIJLyLCjKg9sz4Ro7dQbQ9Hmvc",
      "rating": 3.8,
      "reference": "ChIJLyLCjKg9sz4Ro7dQbQ9Hmvc",
      "scope": "GOOGLE",
      "types": [
        "gym",
        "point_of_interest",
        "health",
        "establishment"
      ],
      "user_ratings_total": 34,
      "vicinity": "R25P+M98, Tauheed Commercial Area Defence V Defence Housing Authority, Karachi"
    }
  ]
}